City_ID,City,Country,Lat,Lng,Max Temp,Humidity,Cloudiness,Wind Speed,Current Description
0,Orizona,BR,-17.0314,-48.2958,90.64,34,95,12.12,moderate rain
1,Ponta Do Sol,PT,32.6667,-17.1,76.71,57,15,5.14,few clouds
2,Aban,RU,56.67,96.06,40.87,88,100,17.98,light rain
3,Albany,US,42.6001,-73.9662,47.48,83,0,2.08,clear sky
4,Hilo,US,19.7297,-155.09,73.27,91,90,0.0,light rain
5,Chokurdakh,RU,70.6333,147.9167,-13.43,100,96,3.36,overcast clouds
6,Viransehir,TR,37.2353,39.7631,74.73,12,5,6.82,clear sky
7,Popondetta,PG,-8.7537,148.2534,73.47,87,17,3.38,few clouds
8,Cape Town,ZA,-33.9258,18.4232,71.11,37,0,4.0,clear sky
9,Yellowknife,CA,62.456,-114.3525,42.42,85,90,19.57,overcast clouds
10,Rikitea,PF,-23.1203,-134.9692,74.46,72,80,15.99,broken clouds
11,Ribeira Grande,PT,38.5167,-28.7,72.0,56,20,11.5,few clouds
12,Leningradskiy,RU,69.3833,178.4167,9.57,95,100,7.34,overcast clouds
13,Dikson,RU,73.5069,80.5464,7.12,86,100,18.54,overcast clouds
14,Mabaruma,GY,8.2,-59.7833,75.69,98,100,0.81,moderate rain
15,Tuktoyaktuk,CA,69.4541,-133.0374,30.2,100,75,5.75,broken clouds
16,Port Alfred,ZA,-33.5906,26.891,63.16,61,45,10.27,scattered clouds
17,Villavicencio,CO,4.142,-73.6266,81.82,69,45,2.51,scattered clouds
18,Olafsvik,IS,64.8945,-23.7142,42.22,86,99,14.65,overcast clouds
19,Nexo,DK,55.0607,15.1306,53.69,77,53,16.67,broken clouds
20,Beloha,MG,-25.1667,45.05,81.34,41,0,13.62,clear sky
21,Hithadhoo,MV,-0.6,73.0833,82.6,75,49,13.29,scattered clouds
22,Morehead,US,37.2711,-87.1764,65.14,82,40,1.99,scattered clouds
23,Victoria,HK,22.2855,114.1577,72.32,71,47,5.01,light rain
24,Paamiut,GL,61.994,-49.6678,31.12,33,96,6.6,overcast clouds
25,Avarua,CK,-21.2078,-159.775,71.65,64,67,6.91,broken clouds
26,Wanaka,NZ,-44.7,169.15,57.11,81,100,1.99,overcast clouds
27,Saint George,US,37.1041,-113.5841,60.53,51,99,3.65,overcast clouds
28,Chicama,PE,-7.8447,-79.1469,57.74,71,58,6.64,broken clouds
29,Punta Arenas,CL,-53.15,-70.9167,41.11,87,75,14.97,light rain
30,Mahebourg,MU,-20.4081,57.7,77.29,73,75,16.11,broken clouds
31,Nuqui,CO,5.7125,-77.2708,80.53,74,72,0.85,broken clouds
32,Butaritari,KI,3.0707,172.7902,79.97,72,10,1.03,clear sky
33,Arraial Do Cabo,BR,-22.9661,-42.0278,76.96,73,40,11.5,scattered clouds
34,Esperance,AU,-33.8667,121.9,69.64,38,100,24.05,overcast clouds
35,Tuatapere,NZ,-46.1333,167.6833,51.78,97,89,1.74,overcast clouds
36,Sarangani,PH,5.4033,125.4636,83.97,73,100,10.51,overcast clouds
37,Barrow,US,71.2906,-156.7887,28.42,74,90,6.91,overcast clouds
38,Okhotsk,RU,59.3833,143.3,21.18,70,100,3.74,overcast clouds
39,Hermanus,ZA,-34.4187,19.2345,70.9,58,0,13.85,clear sky
40,Nikolskoye,RU,59.7035,30.7861,37.4,77,42,4.34,scattered clouds
41,Makhu,IN,31.1033,74.9978,72.05,60,59,9.13,broken clouds
42,Mar Del Plata,AR,-38.0023,-57.5575,59.02,55,0,10.0,clear sky
43,Singaparna,ID,-7.3515,108.111,73.87,95,93,2.37,overcast clouds
44,Rabo De Peixe,PT,37.8,-25.5833,67.51,64,20,9.22,few clouds
45,Shubarshi,KZ,48.5872,57.1869,52.74,30,78,8.72,broken clouds
46,Gornopravdinsk,RU,60.05,69.9,38.37,91,100,3.06,overcast clouds
47,Bluff,NZ,-46.6,168.3333,52.18,94,91,1.48,overcast clouds
48,Ancud,CL,-41.8697,-73.8203,56.73,94,100,15.01,overcast clouds
49,Mehamn,NO,71.0357,27.8492,33.87,65,100,10.22,overcast clouds
50,Atuona,PF,-9.8,-139.0333,77.67,72,12,14.54,few clouds
51,Carnarvon,AU,-24.8667,113.6333,69.87,78,90,14.97,overcast clouds
52,Zhigansk,RU,66.7697,123.3711,24.37,94,99,9.86,overcast clouds
53,Salym,RU,60.0625,71.4789,38.62,87,100,3.38,overcast clouds
54,Pitea,SE,65.3172,21.4794,29.08,89,100,4.43,light snow
55,Deputatskiy,RU,69.3,139.9,0.64,97,100,1.14,light snow
56,Cidreira,BR,-30.1811,-50.2056,67.71,59,33,15.99,scattered clouds
57,Ushuaia,AR,-54.8,-68.3,38.86,75,75,17.27,light rain
58,Kogon,UZ,39.7228,64.5517,62.24,31,0,4.61,clear sky
59,Rorvik,NO,64.8621,11.2373,42.91,100,75,11.5,moderate rain
60,Itarema,BR,-2.9248,-39.9167,86.41,59,100,16.78,overcast clouds
61,The Valley,AI,18.217,-63.0578,87.82,89,40,8.05,scattered clouds
62,Busselton,AU,-33.65,115.3333,59.09,80,100,8.52,moderate rain
63,Rayagada,IN,19.1667,83.4167,73.0,87,58,1.77,broken clouds
64,Bredasdorp,ZA,-34.5322,20.0403,68.29,42,2,10.36,clear sky
65,Ternate,ID,0.8,127.4,80.44,78,21,3.71,few clouds
66,Salaberry-De-Valleyfield,CA,45.2501,-74.1325,46.76,75,68,0.0,broken clouds
67,Ponta Delgada,PT,37.7333,-25.6667,68.72,64,20,9.22,few clouds
68,Boden,SE,65.8252,21.6886,26.6,95,100,1.99,overcast clouds
69,Qaanaaq,GL,77.484,-69.3632,-1.03,60,0,8.59,clear sky
70,New Norfolk,AU,-42.7826,147.0587,45.91,72,100,1.99,overcast clouds
71,Kaitangata,NZ,-46.2817,169.8464,50.79,96,92,1.32,overcast clouds
72,Brcko,BA,44.8728,18.8083,57.15,44,0,6.06,clear sky
73,Narsaq,GL,60.9167,-46.05,30.92,45,100,3.94,overcast clouds
74,Adrar,MR,20.5022,-10.0711,95.77,14,1,5.97,clear sky
75,Vaini,TO,-21.2,-175.2,68.16,88,64,4.61,broken clouds
76,Iralaya,HN,15.0,-83.2333,80.69,83,33,10.65,scattered clouds
77,Lufilufi,WS,-13.8745,-171.5986,69.58,72,75,14.56,broken clouds
78,Isangel,VU,-19.55,169.2667,73.31,85,43,9.91,scattered clouds
79,Ahipara,NZ,-35.1667,173.1667,56.48,96,13,1.7,few clouds
80,Puerto Ayora,EC,-0.7393,-90.3518,70.41,85,95,8.52,overcast clouds
81,Kahului,US,20.8947,-156.47,76.84,87,100,3.0,overcast clouds
82,Hobart,AU,-42.8794,147.3294,46.26,84,75,3.0,broken clouds
83,Caravelas,BR,-17.7125,-39.2481,85.17,61,43,11.03,scattered clouds
84,Torbay,CA,47.6666,-52.7314,61.75,96,90,16.11,light intensity shower rain
85,Conde,BR,-7.2597,-34.9075,81.86,74,75,14.97,broken clouds
86,Yabelo,ET,4.8833,38.0833,75.09,36,78,9.17,broken clouds
87,Tiksi,RU,71.6872,128.8694,4.17,97,100,7.78,overcast clouds
88,Sitka,US,57.0531,-135.33,41.56,88,86,6.08,overcast clouds
89,Port-Cartier,CA,50.0334,-66.8654,47.75,85,100,6.62,overcast clouds
90,Provideniya,RU,64.3833,-173.3,20.12,81,74,8.01,broken clouds
91,Mataura,NZ,-46.1927,168.8643,51.19,93,98,0.51,overcast clouds
92,Fort-Shevchenko,KZ,44.5086,50.263,58.17,57,33,5.21,scattered clouds
93,Lazaro Cardenas,MX,17.9583,-102.2,77.04,86,100,4.07,overcast clouds
94,Lavrentiya,RU,65.5833,-171.0,22.21,86,100,10.63,overcast clouds
95,Mumford,GH,5.2618,-0.759,81.3,78,42,10.2,light rain
96,Yerbogachen,RU,61.2767,108.0108,34.52,97,100,11.43,light rain
97,Alofi,NU,-19.0595,-169.9187,69.69,78,54,8.05,broken clouds
98,Carmen,MX,18.6333,-91.8333,80.64,89,40,6.91,scattered clouds
99,Lebu,CL,-37.6167,-73.65,56.07,73,4,7.65,clear sky
100,Longyearbyen,SJ,78.2186,15.6401,19.24,73,75,6.91,broken clouds
101,Khatanga,RU,71.9667,102.5,0.45,91,72,16.37,broken clouds
102,Greenwood,US,34.1668,-82.1165,62.55,60,90,3.87,overcast clouds
103,Banjar,ID,-8.19,114.9675,80.46,88,100,5.03,overcast clouds
104,Cockburn Town,TC,21.4612,-71.1419,82.6,74,16,18.59,few clouds
105,Timiryazevskiy,RU,56.49,84.8769,45.55,77,9,9.73,clear sky
106,Kruisfontein,ZA,-34.0033,24.7314,64.89,41,47,10.51,scattered clouds
107,Te Anau,NZ,-45.4167,167.7167,49.62,98,78,0.58,broken clouds
108,Pringsewu,ID,-5.3582,104.9744,75.33,95,93,3.27,overcast clouds
109,Bambous Virieux,MU,-20.3428,57.7575,77.25,73,75,16.11,broken clouds
110,Chara,RU,56.9064,118.2631,28.89,64,16,1.61,few clouds
111,Baki,ID,-7.6128,110.7839,77.47,81,59,5.68,light rain
112,Bethel,US,41.3712,-73.414,52.0,88,0,3.2,clear sky
113,Mount Isa,AU,-20.7333,139.5,78.57,53,75,20.71,broken clouds
114,Vila Franca Do Campo,PT,37.7167,-25.4333,68.41,55,23,7.11,few clouds
115,Abbeville,FR,50.1,1.8333,58.68,52,93,9.82,overcast clouds
116,Thinadhoo,MV,0.5333,72.9333,83.68,70,20,13.22,few clouds
117,Harper,LR,4.375,-7.7169,80.2,82,98,8.57,light rain
118,Tugulym,RU,57.0591,64.6425,42.87,97,100,6.82,light rain
119,Asfi,MA,32.2994,-9.2372,72.32,63,92,13.98,overcast clouds
120,Tazmalt,DZ,36.3868,4.3989,68.72,51,31,7.58,scattered clouds
121,Port Macquarie,AU,-31.4333,152.9167,63.9,77,100,5.77,overcast clouds
122,San Patricio,US,28.017,-97.5169,80.89,86,0,8.72,clear sky
123,Saint-Philippe,RE,-21.3585,55.7679,78.39,77,13,11.74,few clouds
124,Severo-Kurilsk,RU,50.6789,156.125,38.03,73,70,12.37,broken clouds
125,Husavik,IS,66.0449,-17.3389,33.71,96,100,4.52,overcast clouds
126,Lopik,NL,51.9725,4.9486,59.09,70,6,1.99,clear sky
127,Saint-Joseph,RE,-21.3667,55.6167,77.38,78,32,8.46,scattered clouds
128,Fortuna,US,40.5982,-124.1573,60.19,74,90,4.0,overcast clouds
129,Oranjestad,AW,12.524,-70.027,82.71,79,59,23.6,broken clouds
130,Zaozerne,UA,45.1582,33.2787,51.94,46,5,15.73,clear sky
131,Jamestown,US,42.097,-79.2353,46.51,99,90,3.0,mist
132,Makarov,RU,48.6333,142.8,38.03,71,0,4.18,clear sky
133,Haapiti,PF,-17.5667,-149.8667,73.13,93,100,10.09,heavy intensity rain
134,Pevek,RU,69.7008,170.3133,8.28,92,100,0.34,overcast clouds
135,Kapaa,US,22.0752,-159.319,73.18,89,100,12.71,overcast clouds
136,Port-Gentil,GA,-0.7193,8.7815,78.8,83,68,8.03,broken clouds
137,Cabadiangan,PH,9.7531,122.4739,77.79,89,100,2.82,overcast clouds
138,Airai,TL,-8.9266,125.4092,63.45,91,94,1.36,overcast clouds
139,Castro,BR,-24.7911,-50.0119,60.73,98,100,4.99,moderate rain
140,Cherskiy,RU,68.75,161.3,-8.9,98,100,6.04,overcast clouds
141,Doaba,PK,33.4244,70.7364,62.26,57,4,3.69,clear sky
142,Kampot,KH,10.6167,104.1833,82.45,88,99,6.93,light rain
143,Lagoa,PT,39.05,-27.9833,65.95,62,1,9.51,clear sky
144,Sooke,CA,48.3746,-123.7276,53.08,86,100,17.78,overcast clouds
145,Troitsko-Pechorsk,RU,62.7084,56.1964,25.93,96,100,2.21,overcast clouds
146,Corinto,GR,37.9407,22.9573,73.62,67,100,8.05,overcast clouds
147,Narva-Joesuu,EE,59.4589,28.0408,37.74,62,82,7.76,light rain
148,Brodokalmak,RU,55.5748,62.082,52.7,82,100,20.51,light rain
149,Upernavik,GL,72.7868,-56.1549,17.83,64,100,9.44,overcast clouds
150,Lata,PT,40.1629,-8.3327,76.5,44,0,5.99,clear sky
151,Geraldton,AU,-28.7667,114.6,66.61,77,90,14.97,overcast clouds
152,Kidal,ML,18.4411,1.4078,99.79,16,36,4.88,scattered clouds
153,Ola,RU,59.5833,151.2833,23.86,61,30,5.73,scattered clouds
154,Marathon,US,44.9,-89.7668,36.81,83,1,5.75,clear sky
155,Mulchen,CL,-37.7167,-72.2333,64.24,42,2,5.35,clear sky
156,Stillwater,US,36.1156,-97.0584,72.88,79,100,7.0,overcast clouds
157,Rio Gallegos,AR,-51.6226,-69.2181,45.01,73,100,25.93,light rain
158,Karratha,AU,-20.7377,116.8463,80.26,55,5,10.87,clear sky
159,Creel,MX,27.75,-107.6333,44.35,71,0,3.44,clear sky
160,Svetlogorsk,BY,52.6333,29.7333,40.14,58,100,9.73,overcast clouds
161,Mlowo,TZ,-9.0,32.9833,85.84,22,74,4.45,broken clouds
162,Moerai,PF,-22.4333,-151.3333,71.87,66,97,10.58,overcast clouds
163,Seminole,US,28.7086,-81.2081,82.98,88,1,6.91,clear sky
164,Congonhas,BR,-20.4997,-43.8578,74.34,75,100,9.22,overcast clouds
165,Aklavik,CA,68.2191,-135.0107,25.52,96,81,2.19,broken clouds
166,Lorengau,PG,-2.0226,147.2712,82.0,76,100,6.62,overcast clouds
167,Broome,US,42.2506,-75.833,47.8,86,75,1.01,broken clouds
168,Srednekolymsk,RU,67.45,153.6833,-10.14,96,99,3.09,overcast clouds
169,Korla,CN,41.7597,86.1469,53.46,33,0,1.5,clear sky
170,Kodiak,US,57.79,-152.4072,42.19,91,68,9.42,light rain
171,Tombouctou,ML,20.0,-3.0,98.69,15,6,6.69,clear sky
172,Mitsamiouli,KM,-11.3847,43.2844,81.12,76,2,9.13,clear sky
173,Namibe,AO,-15.1961,12.1522,73.47,59,6,12.24,clear sky
174,Havre,FR,49.5833,0.3333,61.57,67,0,12.66,clear sky
175,Gat,IL,31.61,34.7642,77.4,6,0,14.09,clear sky
176,Faya,SA,18.3851,42.4509,68.41,33,4,9.55,clear sky
177,East London,ZA,-33.0153,27.9116,64.76,55,45,8.97,scattered clouds
178,Sabana De Torres,CO,7.3915,-73.4957,79.03,84,99,0.96,overcast clouds
179,Boyolangu,ID,-8.1181,111.8935,76.96,83,100,3.02,overcast clouds
180,Vyyezdnoye,RU,55.3815,43.7864,37.85,94,100,11.07,overcast clouds
181,Cabo San Lucas,MX,22.8909,-109.9124,75.51,71,4,1.01,clear sky
182,Necochea,AR,-38.5473,-58.7368,59.67,49,0,9.78,clear sky
183,George Town,MY,5.4112,100.3354,80.53,92,40,1.01,scattered clouds
184,Ajdabiya,LY,30.7554,20.2263,88.43,19,100,10.71,overcast clouds
185,Port Elizabeth,ZA,-33.918,25.5701,67.1,51,29,11.05,scattered clouds
186,Leshukonskoye,RU,64.8989,45.7622,28.35,94,100,6.17,overcast clouds
187,Garowe,SO,8.4054,48.4845,88.86,27,0,5.44,clear sky
188,Jalu,LY,29.0331,21.5482,89.1,18,27,6.29,scattered clouds
189,Shache,CN,38.4167,77.2406,52.97,27,0,7.36,clear sky
190,Motygino,RU,58.1831,94.7592,41.59,92,100,14.03,light rain
191,Ourossogui,SN,15.6064,-13.3211,96.8,35,96,7.29,overcast clouds
192,Ranong,TH,9.9658,98.6348,78.08,89,91,4.81,overcast clouds
193,Willowmore,ZA,-33.2926,23.4895,64.51,31,3,6.51,clear sky
194,Rudbar,AF,30.15,62.6,67.95,13,81,3.96,broken clouds
195,Bilma,NE,18.6853,12.9164,97.66,8,0,4.97,clear sky
196,Medveditskiy,RU,50.7852,44.7129,45.21,53,100,6.89,overcast clouds
197,Pisco,PE,-13.7,-76.2167,63.01,85,14,4.81,few clouds
198,Arcata,US,40.8665,-124.0828,60.26,94,90,1.01,overcast clouds
199,Wicklow,IE,53.0,-6.4167,55.96,79,15,14.47,few clouds
200,Nenjiang,CN,49.1833,125.2167,41.41,62,12,6.82,few clouds
201,Nanortalik,GL,60.1432,-45.2371,35.73,67,58,11.05,broken clouds
202,Viedma,AR,-40.8135,-62.9967,67.75,18,18,19.77,few clouds
203,Beringovskiy,RU,63.05,179.3167,8.64,84,29,7.14,scattered clouds
204,Kismayo,SO,-0.3582,42.5454,81.09,74,22,15.26,few clouds
205,Los Llanos De Aridane,ES,28.6585,-17.9182,69.55,77,75,8.05,broken clouds
206,Store Heddinge,DK,55.3097,12.3889,54.66,67,100,15.97,overcast clouds
207,Vostok,RU,46.4856,135.8833,32.65,77,0,5.3,clear sky
208,Nador,MA,35.174,-2.9287,70.05,68,20,10.36,few clouds
209,Shahrud,IR,36.4182,54.9763,54.93,41,91,9.26,overcast clouds
210,La Ronge,CA,55.1001,-105.2842,34.38,82,23,16.44,few clouds
211,San Juan,AR,-31.5375,-68.5364,73.92,18,0,5.26,clear sky
212,Kaseda,JP,31.4167,130.3167,65.21,74,100,11.59,overcast clouds
213,Malia,GR,35.2833,25.4667,75.81,69,9,7.54,clear sky
214,Abu Samrah,SY,35.3029,37.1841,76.91,23,1,4.14,clear sky
215,Marrakesh,MA,31.6315,-8.0083,82.47,30,75,3.44,broken clouds
216,Safaga,EG,26.7292,33.9365,80.35,49,0,16.53,clear sky
217,Nishiwaki,JP,34.9833,134.9667,59.05,74,100,4.68,overcast clouds
218,Panguipulli,CL,-39.6333,-72.3333,51.51,99,100,2.3,overcast clouds
219,Lucea,JM,18.451,-78.1736,86.86,74,100,8.25,overcast clouds
220,Khandbari,NP,27.3747,87.2039,63.45,86,19,2.3,few clouds
221,Salalah,OM,17.0151,54.0924,80.69,66,9,5.41,clear sky
222,Kiunga,PG,-6.1219,141.2906,73.9,99,100,2.84,moderate rain
223,Hofn,IS,64.2539,-15.2082,48.22,87,75,10.36,broken clouds
224,La Plata,AR,-34.9215,-57.9545,70.03,39,1,10.69,clear sky
225,Guerrero Negro,MX,27.9769,-114.0611,62.89,77,1,10.38,clear sky
226,Liuzhou,CN,24.3126,109.3892,64.18,58,0,7.34,clear sky
227,Kamenka,RU,51.3223,42.7678,45.01,51,85,7.99,overcast clouds
228,Muyezerskiy,RU,63.9333,31.65,23.02,92,95,5.46,overcast clouds
229,Yulara,AU,-25.2406,130.9889,70.59,28,51,17.43,broken clouds
230,Pathein,MM,16.7833,94.7333,76.44,90,100,1.16,overcast clouds
231,Padang,ID,-0.9492,100.3543,77.05,90,100,1.54,overcast clouds
232,Teguldet,RU,57.3064,88.1667,42.15,80,50,12.12,scattered clouds
233,Fuerte Olimpo,PY,-21.0415,-57.8738,72.5,69,88,9.82,overcast clouds
234,Dasoguz,TM,41.8363,59.9666,57.31,20,37,5.77,scattered clouds
235,Salinopolis,BR,-0.6136,-47.3561,85.84,67,23,11.18,few clouds
236,Meadow Lake,US,34.8014,-106.5436,53.96,52,94,3.02,overcast clouds
237,Fort Dodge,US,42.4975,-94.168,43.39,81,90,20.71,light rain
238,Stupava,SK,48.2747,17.0317,56.08,52,0,9.22,clear sky
239,Great Falls,US,47.5002,-111.3008,41.41,73,1,9.22,clear sky
240,Antalaha,MG,-14.9003,50.2788,76.86,90,42,6.31,light rain
241,Sao Filipe,CV,14.8961,-24.4956,81.09,63,5,7.74,clear sky
242,Kenora,CA,49.8167,-94.4337,37.38,82,9,8.01,clear sky
243,Vila Velha,BR,-20.3297,-40.2925,83.25,65,0,14.63,clear sky
244,Vanavara,RU,60.34,102.2797,36.28,97,100,11.9,light rain
245,Luderitz,NA,-26.6481,15.1594,72.0,48,0,28.41,clear sky
246,Mizdah,LY,31.4451,12.9801,83.03,23,0,18.16,clear sky
247,Yanaul,RU,56.2719,54.9309,44.1,64,100,12.17,overcast clouds
248,Thompson,CA,55.7435,-97.8558,26.76,100,90,2.3,overcast clouds
249,Lasa,IT,46.6166,10.7002,56.03,41,0,3.94,clear sky
250,Lincoln,US,40.8,-96.667,49.14,96,100,1.01,light rain
251,Baherden,TM,38.4362,57.4316,63.86,21,99,1.7,overcast clouds
252,Chissamba,AO,-12.1667,17.3333,81.97,45,100,2.75,overcast clouds
253,Teknaf,BD,20.8624,92.3058,77.25,81,32,6.11,scattered clouds
254,Katsuura,JP,35.1333,140.3,59.14,61,98,6.71,overcast clouds
255,Santa Cruz,BO,-17.8,-63.1667,77.59,34,100,18.34,moderate rain
256,Tessalit,ML,20.1986,1.0114,99.66,13,6,5.5,clear sky
257,Doda,IN,33.1333,75.5667,56.77,81,94,2.26,overcast clouds
258,Bengkulu,ID,-3.8004,102.2655,76.78,88,76,3.69,broken clouds
259,Belmonte,BR,-15.8631,-38.8828,81.1,79,46,6.31,scattered clouds
260,Tambura,SS,5.6,27.4667,90.28,46,100,5.59,overcast clouds
261,Cascais,PT,38.6979,-9.4215,77.61,49,0,8.01,clear sky
262,At-Bashi,KG,41.1702,75.8106,33.82,41,0,7.4,clear sky
263,Arkhangelsk,RU,64.5401,40.5433,32.11,80,75,6.71,broken clouds
264,Pedernales,DO,18.0384,-71.744,84.45,57,16,2.1,few clouds
265,Watsa,CD,3.0372,29.5355,79.25,66,100,3.89,overcast clouds
266,Santa Rosa,PH,14.3122,121.1114,81.09,80,100,10.45,overcast clouds
267,Tual,ID,-5.6667,132.75,81.64,80,100,8.7,overcast clouds
268,Sakata,JP,38.9167,139.855,55.53,69,73,3.65,broken clouds
269,Charlestown,AU,-32.95,151.6667,62.69,78,100,2.95,overcast clouds
270,Honiara,SB,-9.4333,159.95,78.51,86,13,2.86,few clouds
271,Santiago Del Estero,AR,-27.7951,-64.2615,75.81,21,0,7.2,clear sky
272,Chkalovsk,RU,56.7647,43.2433,40.59,96,100,9.84,light rain
273,Bandarbeyla,SO,9.4942,50.8122,79.92,68,0,11.27,clear sky
274,Rawson,AR,-43.3002,-65.1023,66.13,29,95,29.84,overcast clouds
275,Poso,ID,-1.3959,120.7524,77.25,88,100,3.89,overcast clouds
276,Gacko,BA,43.1672,18.5353,49.01,55,6,6.91,clear sky
277,Grindavik,IS,63.8424,-22.4338,45.07,93,90,8.05,overcast clouds
278,Tirumala,IN,13.6833,79.35,69.98,83,100,3.09,moderate rain
279,Kabare,CD,-2.4683,28.8242,73.38,70,66,2.62,light rain
280,Pokhara,NP,28.2333,83.9833,62.29,86,0,5.75,clear sky
281,Itacoatiara,BR,-3.1431,-58.4442,91.31,53,49,3.76,scattered clouds
282,Komsomolskiy,UZ,40.4272,71.7189,54.82,22,0,0.74,clear sky
283,Clyde River,CA,70.4692,-68.5914,13.42,79,36,6.64,scattered clouds
284,Shingu,JP,33.7333,135.9833,59.49,81,100,5.75,overcast clouds
285,Bulungu,CD,-4.55,18.6,87.22,53,56,4.61,broken clouds
286,Dezful,IR,32.3811,48.4058,84.24,15,0,6.06,clear sky
287,Kendari,ID,-3.945,122.4989,77.29,89,84,1.59,broken clouds
288,Alihe,CN,50.5667,123.7167,35.56,74,1,3.18,clear sky
289,Tasiilaq,GL,65.6145,-37.6368,30.36,94,100,20.78,snow
290,Stornoway,GB,58.2093,-6.3865,53.92,87,40,23.02,scattered clouds
291,Kavaratti,IN,10.5669,72.642,82.2,71,95,1.32,overcast clouds
292,Muisne,EC,0.6,-80.0333,76.73,83,100,8.86,overcast clouds
293,Hope,US,33.6671,-93.5916,69.24,87,39,9.06,scattered clouds
294,Irtyshskiy,RU,58.3333,68.1333,41.79,90,100,7.16,light rain
295,Saskylakh,RU,71.9167,114.0833,-7.8,99,83,5.73,broken clouds
296,Dunedin,NZ,-45.8742,170.5036,50.74,96,48,5.99,scattered clouds
297,Krasnoselkup,RU,65.7,82.4667,26.62,95,94,17.09,light snow
298,Sabang,ID,5.8933,95.3214,81.7,76,99,6.67,overcast clouds
299,Umm Kaddadah,SD,13.6017,26.6876,96.51,13,4,18.45,clear sky
300,Kiama,AU,-34.6833,150.8667,57.99,86,78,6.4,broken clouds
301,Kavieng,PG,-2.5744,150.7967,82.22,77,66,9.44,light rain
302,Ravar,IR,31.2656,56.8055,64.62,14,0,3.09,clear sky
303,Yambio,SS,4.5721,28.3955,78.58,75,94,3.04,light rain
304,Kuroiso,JP,36.9667,140.05,48.85,75,97,1.28,overcast clouds
305,Hasaki,JP,35.7333,140.8333,45.0,46,99,5.21,overcast clouds
306,Peniche,PT,39.3558,-9.3811,77.74,72,0,8.46,clear sky
307,Barcelona,ES,41.3888,2.159,74.91,56,20,4.0,few clouds
308,Alta Floresta,BR,-9.8756,-56.0861,94.41,40,38,2.71,scattered clouds
309,Dubbo,AU,-32.25,148.6167,46.53,61,0,6.91,clear sky
310,Bartlesville,US,36.7473,-95.9808,72.1,82,1,14.97,clear sky
311,Hambantota,LK,6.1241,81.1185,82.74,83,40,8.05,scattered clouds
312,Iqaluit,CA,63.7506,-68.5145,29.7,86,66,8.99,broken clouds
313,Poindimie,NC,-20.9333,165.3333,73.36,83,66,10.4,broken clouds
314,Leua,SK,48.2156,18.6071,56.5,42,0,5.26,clear sky
315,Angoche,MZ,-16.2325,39.9086,83.01,68,4,20.58,clear sky
316,Zhangye,CN,38.9342,100.4517,46.44,37,30,4.0,scattered clouds
317,Saint-Augustin,CA,51.226,-58.6502,46.56,84,100,12.44,overcast clouds
318,Chuy,UY,-33.6971,-53.4616,63.72,42,0,7.94,clear sky
319,Kirn,DE,49.7833,7.45,59.95,75,0,7.43,clear sky
320,Camapua,BR,-19.5314,-54.0439,72.86,88,100,2.84,light rain
321,Acapulco,MX,16.8634,-99.8901,76.44,86,100,11.18,overcast clouds
322,Tastur,TN,36.5513,9.4431,69.87,66,95,17.69,overcast clouds
323,Phu Ly,VN,20.5411,105.9139,65.64,78,39,4.7,scattered clouds
324,Sola,VU,-13.8833,167.55,80.76,76,23,14.34,few clouds
325,Morros,BR,-9.4467,-46.3003,88.18,49,100,3.11,overcast clouds
326,Quepos,CR,9.4236,-84.1652,87.53,82,61,4.38,broken clouds
327,Mackenzie,CA,55.2999,-123.1698,38.21,87,98,1.9,overcast clouds
328,Tazovskiy,RU,67.4667,78.7,27.21,92,100,14.5,overcast clouds
329,Trat,TH,12.5,102.5,84.97,88,60,6.96,broken clouds
330,Muskegon,US,43.3,-86.1334,43.9,91,75,6.91,broken clouds
331,Oranjemund,NA,-28.55,16.4333,66.22,55,0,28.14,clear sky
332,Klaksvik,FO,62.2266,-6.589,50.92,91,87,24.09,overcast clouds
333,Sheridan,US,44.8333,-106.9173,42.98,69,90,3.44,overcast clouds
334,San Policarpo,PH,12.1791,125.5072,79.45,85,100,4.7,overcast clouds
335,Floro,NO,61.5996,5.0328,52.5,87,75,24.16,moderate rain
336,Hovd,MN,48.0056,91.6419,36.19,29,7,2.48,clear sky
337,Ust-Shonosha,RU,61.1531,41.343,30.49,84,81,8.95,broken clouds
338,Takoradi,GH,4.8845,-1.7554,81.46,79,68,9.33,light rain
339,Vitim,RU,59.4511,112.5578,36.23,97,100,12.44,light rain
340,Didi Lilo,GE,41.7361,44.9647,62.38,26,0,14.97,clear sky
341,Chudniv,UA,50.052,28.1175,44.37,48,100,12.71,overcast clouds
342,Zwedru,LR,6.0667,-8.1281,81.77,84,70,4.23,moderate rain
343,Agadir,MA,30.4202,-9.5982,75.65,61,100,8.43,overcast clouds
344,Krasne,UA,49.9145,24.6134,45.75,49,93,7.78,overcast clouds
345,Neuquen,AR,-38.9516,-68.0591,69.15,30,2,31.52,clear sky
346,Vardo,NO,70.3705,31.1107,30.4,65,49,16.73,scattered clouds
347,Kiruna,SE,67.8557,20.2251,18.52,86,90,0.0,light snow
348,Sao Joao Da Barra,BR,-21.6403,-41.0511,84.29,73,47,10.29,scattered clouds
349,Tam Ky,VN,15.5667,108.4833,76.98,88,100,14.14,overcast clouds
350,Ilesha,NG,7.1371,5.2583,91.47,45,30,1.36,scattered clouds
351,Pahrump,US,36.2083,-115.9839,59.18,48,100,7.0,overcast clouds
352,Flinders,AU,-34.5833,150.8552,58.21,84,67,5.7,broken clouds
353,Rio Linda,US,38.691,-121.4486,59.38,92,90,15.01,moderate rain
354,Georgetown,MY,5.4112,100.3354,80.53,92,40,1.01,scattered clouds
355,Moroni,KM,-11.7022,43.2551,80.85,74,2,3.56,clear sky
356,Hervey Bay,AU,-25.2986,152.8535,77.04,89,93,7.29,overcast clouds
357,Altamira,BR,-3.2033,-52.2064,88.14,57,74,5.37,broken clouds
358,Lillesand,NO,58.2488,8.3778,53.64,76,0,13.8,clear sky
359,Zalantun,CN,48.0,122.7167,42.33,51,20,4.52,few clouds
360,Anchorage,US,61.2181,-149.9003,42.91,86,90,1.01,light rain
361,Mount Gambier,AU,-37.8333,140.7667,48.9,61,68,7.87,broken clouds
362,Trofors,NO,65.5333,13.4063,47.55,95,100,5.97,light rain
363,Aykhal,RU,66.0,111.5,23.02,97,99,6.35,overcast clouds
364,Kundiawa,PG,-6.0167,144.9667,58.6,96,80,3.85,broken clouds
365,Sal Rei,CV,16.1833,-22.9167,84.4,61,20,21.85,few clouds
366,Agadez,NE,19.75,10.25,96.39,8,3,7.58,clear sky
367,Wajima,JP,37.4,136.9,57.97,63,100,6.46,overcast clouds
368,Predivinsk,RU,57.0669,93.4378,43.03,87,100,13.35,light rain
369,Sheregesh,RU,52.9209,87.9869,38.98,92,100,6.46,light rain
370,Taikang,CN,46.8333,124.4167,46.38,44,72,9.06,broken clouds
371,Asosa,ET,10.0667,34.5333,76.98,59,66,2.68,broken clouds
372,Svetlaya,RU,46.5389,138.3297,44.92,65,0,7.07,clear sky
373,Saldanha,ZA,-33.0117,17.9442,62.04,64,0,20.78,clear sky
374,Gradsko,MK,41.5775,21.9428,60.58,39,45,8.61,scattered clouds
375,Bradulet,RO,45.2833,24.7667,53.28,41,24,5.26,few clouds
376,Birobidzhan,RU,48.8,132.95,43.03,62,0,3.87,clear sky
377,Loei,TH,17.4167,101.5,61.92,96,33,2.21,scattered clouds
378,Anori,BR,-3.7728,-61.6442,95.27,41,97,3.58,overcast clouds
379,Balikpapan,ID,-1.2675,116.8289,78.62,84,16,2.89,few clouds
380,Lucapa,AO,-8.4192,20.7447,88.48,40,86,5.82,overcast clouds
381,Kununurra,AU,-15.7667,128.7333,80.58,65,26,2.3,scattered clouds
382,Zhuhai,CN,22.2769,113.5678,72.05,73,20,16.11,light rain
383,Amiens,FR,49.9,2.3,58.44,48,49,10.0,scattered clouds
384,Vallenar,CL,-28.5708,-70.7581,74.61,30,0,3.87,clear sky
385,Codrington,AU,-38.2667,141.9667,50.94,59,100,11.79,overcast clouds
386,Bolgar,RU,54.95,49.0667,44.29,64,36,15.1,scattered clouds
387,Dingle,PH,10.9995,122.6711,76.77,89,100,2.42,overcast clouds
388,Ulverstone,AU,-41.15,146.1667,46.22,78,5,7.36,clear sky
389,Aswan,EG,24.0934,32.907,89.46,14,0,12.55,clear sky
390,Haines Junction,CA,60.7522,-137.5108,26.82,88,9,1.9,clear sky
391,Half Moon Bay,US,37.4636,-122.4286,62.42,93,90,7.0,light rain
392,The Pas,CA,53.8251,-101.2541,34.99,84,7,8.75,clear sky
393,Fare,PF,-16.7,-151.0167,74.61,94,100,12.68,heavy intensity rain
394,Faanui,PF,-16.4833,-151.75,75.06,91,100,11.92,moderate rain
395,Tynda,RU,55.1667,124.7167,30.15,90,28,1.16,scattered clouds
396,Basco,PH,20.4487,121.9702,79.97,79,13,13.91,few clouds
397,Suntar,RU,62.1444,117.6319,33.26,97,100,8.66,light snow
398,Waslala,NI,13.2333,-85.3833,78.13,81,19,2.39,few clouds
399,Nuevo Laredo,MX,27.4763,-99.5164,78.78,94,90,0.0,overcast clouds
400,Nabinagar,BD,23.8917,90.9733,82.47,73,0,5.35,clear sky
401,Yudong,CN,29.385,106.5194,69.49,78,62,2.35,light rain
402,Jiuquan,CN,39.7432,98.5174,47.84,30,82,9.75,broken clouds
403,Marsh Harbour,BS,26.5412,-77.0636,81.27,74,98,9.33,overcast clouds
404,Marzuq,YE,14.4,46.4667,81.45,14,8,8.12,clear sky
405,Lengshuitan,CN,26.4111,111.5956,57.87,72,0,3.91,clear sky
406,Makakilo City,US,21.3469,-158.0858,75.56,74,1,8.05,clear sky
407,Tsuyama,JP,35.05,134.0,55.35,82,100,1.61,overcast clouds
408,Cap Malheureux,MU,-19.9842,57.6142,76.46,70,4,8.99,clear sky
409,Mountain Home,US,43.133,-115.6912,50.94,100,1,18.41,clear sky
410,Ostrovnoy,RU,68.0531,39.5131,29.8,84,99,24.07,light snow
411,San Quintin,MX,30.4833,-115.95,59.43,85,23,8.08,few clouds
412,Real,PH,14.6625,121.6047,82.13,95,100,10.47,overcast clouds
413,Port Hedland,AU,-20.3167,118.5667,75.25,69,3,5.75,clear sky
414,Margate,GB,51.3813,1.3862,58.86,64,97,5.01,overcast clouds
415,Gizo,SB,-8.103,156.8419,82.44,76,37,7.43,light rain
416,Verkhoyansk,RU,67.5447,133.385,1.9,100,97,1.07,overcast clouds
417,Zhezkazgan,KZ,47.8043,67.7144,50.45,36,8,5.5,clear sky
418,Adana,TR,36.985,35.2881,81.12,36,0,10.36,clear sky
419,Kattivakkam,IN,13.2167,80.3167,82.49,73,45,10.65,scattered clouds
420,Olavarria,AR,-36.8927,-60.3225,63.01,46,0,9.13,clear sky
421,Taoudenni,ML,22.6783,-3.9836,98.08,13,0,4.32,clear sky
422,Berlevag,NO,70.8578,29.0864,35.29,62,100,12.44,light snow
423,Kjollefjord,NO,70.9457,27.3465,33.49,66,100,7.11,light snow
424,Sohag,EG,26.557,31.6948,84.06,17,0,18.23,clear sky
425,Tonj,SS,7.2737,28.6822,96.12,31,44,5.79,scattered clouds
426,Launceston,AU,-41.45,147.1667,46.15,76,67,11.5,broken clouds
427,Lalmohan,BD,22.3384,90.7419,78.96,72,5,3.4,clear sky
428,Nhulunbuy,AU,-12.2333,136.7667,81.21,74,53,5.75,broken clouds
429,Ilulissat,GL,69.2167,-51.1,21.22,63,75,17.27,broken clouds
430,Cuitlahuac,MX,18.8167,-96.7167,76.66,90,42,2.35,scattered clouds
431,Gravdal,NO,68.1214,13.5031,39.09,70,75,11.5,broken clouds
432,Coquimbo,CL,-29.9533,-71.3436,60.53,72,0,10.36,clear sky
433,San Carlos De Bariloche,AR,-41.1456,-71.3082,51.55,58,75,21.85,broken clouds
434,Vila,PT,42.0304,-8.1588,62.74,64,96,2.98,overcast clouds
435,Souillac,MU,-20.5167,57.5167,76.35,73,12,13.11,few clouds
436,Dyurtyuli,RU,55.4911,54.8688,44.98,60,72,13.47,broken clouds
437,Nuuk,GL,64.1835,-51.7216,27.21,43,40,11.5,scattered clouds
438,Bathsheba,BB,13.2167,-59.5167,88.41,62,20,25.32,few clouds
439,Batagay,RU,67.6333,134.6333,5.5,98,100,1.88,overcast clouds
440,Ojinaga,MX,29.5667,-104.4167,66.42,44,1,0.0,clear sky
441,Smithers,CA,54.7804,-127.1743,35.02,91,93,1.1,overcast clouds
442,Denpasar,ID,-8.65,115.2167,80.26,78,20,1.14,few clouds
443,Norman Wells,CA,65.282,-126.8329,19.44,86,75,6.91,broken clouds
444,Bubaque,GW,11.2833,-15.8333,82.17,74,100,7.87,overcast clouds
445,Bhinga,IN,27.7167,81.9333,73.09,64,0,6.46,clear sky
446,Skibbereen,IE,51.55,-9.2667,58.8,84,74,19.01,light rain
447,Udachnyy,RU,66.4167,112.4,14.04,96,96,5.08,overcast clouds
448,Noumea,NC,-22.2763,166.4572,67.98,77,42,9.6,scattered clouds
449,Sampit,ID,-2.5333,112.95,76.21,91,30,2.44,scattered clouds
450,Lompoc,US,34.6391,-120.4579,58.14,88,90,5.75,overcast clouds
451,Kayankulam,IN,9.1833,76.5,78.75,82,98,5.7,overcast clouds
452,Kieta,PG,-6.2167,155.6333,78.93,83,91,3.58,overcast clouds
453,Yeppoon,AU,-23.1333,150.7333,74.98,81,50,3.8,scattered clouds
454,Asekeyevo,RU,53.5742,52.7972,43.66,73,41,6.4,scattered clouds
455,Anju,KP,39.6178,125.6647,46.47,80,0,1.36,clear sky
456,Grand Gaube,MU,-20.0064,57.6608,76.37,70,5,8.99,clear sky
457,Storforshei,NO,66.4043,14.5233,37.18,86,75,8.05,broken clouds
458,Nong Ki,TH,14.6868,102.538,72.25,87,100,8.99,overcast clouds
459,Nome,US,64.5011,-165.4064,26.67,80,90,0.0,overcast clouds
460,Bhag,PK,29.0415,67.8239,83.26,18,0,7.29,clear sky
461,Bull Savanna,JM,17.8868,-77.5902,80.73,71,92,9.73,overcast clouds
462,Queanbeyan,AU,-35.35,149.2333,50.36,81,36,0.0,scattered clouds
463,Talnakh,RU,69.4865,88.3972,22.89,96,100,5.28,light snow
464,Kurchum,KZ,48.5722,83.6542,42.66,46,3,3.58,clear sky
465,Villa Bruzual,VE,9.3328,-69.1208,82.42,72,68,3.4,broken clouds
466,Santa Cruz Del Sur,CU,20.7147,-77.9956,81.99,75,96,8.3,overcast clouds
467,Araouane,ML,18.9048,-3.5265,100.98,17,42,9.48,scattered clouds
468,Khartoum,SD,15.5518,32.5324,100.74,17,18,9.98,few clouds
469,Skierniewice,PL,51.9548,20.1584,53.92,57,100,4.27,overcast clouds
470,Zhongshu,CN,24.5167,103.7667,51.37,99,100,3.09,overcast clouds
471,Buraydah,SA,26.326,43.975,88.45,13,0,8.19,clear sky
472,Sur,OM,22.5667,59.5289,83.19,61,0,4.81,clear sky
473,Barongis,PH,7.2611,124.5642,75.87,86,87,3.24,overcast clouds
474,Ambilobe,MG,-13.2,49.05,88.54,49,47,7.96,light rain
475,Fairbanks,US,64.8378,-147.7164,31.23,89,90,0.0,overcast clouds
476,Praia Da Vitoria,PT,38.7333,-27.0667,70.75,69,10,8.68,clear sky
477,Kondinskoye,RU,59.6481,67.41,39.79,80,100,2.91,overcast clouds
478,Broken Hill,AU,-31.95,141.4333,58.8,34,0,6.78,clear sky
479,Nisia Floresta,BR,-6.0911,-35.2086,86.81,53,86,13.56,overcast clouds
480,Axim,GH,4.8699,-2.2405,80.96,79,100,8.59,light rain
481,Mareeba,AU,-17.0,145.4333,68.72,94,42,2.8,scattered clouds
482,Kitob,UZ,39.0843,66.8332,57.78,22,0,0.51,clear sky
483,El Arenal,MX,20.7833,-103.7,64.31,88,98,0.89,overcast clouds
484,Santa Cruz Del Norte,CU,23.1539,-81.9236,79.54,77,98,6.26,overcast clouds
485,North Platte,US,41.1239,-100.7654,44.49,81,20,0.0,few clouds
486,Phon,TH,15.816,102.5998,77.97,84,68,8.28,broken clouds
487,Namatanai,PG,-3.6667,152.4333,79.68,81,95,6.55,light rain
488,Luhyny,UA,51.082,28.4006,42.49,55,100,10.71,overcast clouds
489,Tateyama,JP,34.9833,139.8667,59.05,62,100,8.39,overcast clouds
490,Bara,NG,10.3744,10.7288,96.67,26,27,8.68,scattered clouds
491,Saryozek,KZ,44.3583,77.9753,43.84,40,0,4.18,clear sky
492,Galdar,ES,28.147,-15.6502,75.7,65,100,11.54,overcast clouds
493,Rio De Janeiro,BR,-22.9028,-43.2075,83.91,84,90,10.36,light rain
494,Nara,JP,34.6851,135.8049,58.98,54,86,3.31,overcast clouds
495,Beja,TN,36.7256,9.1817,66.87,72,89,16.33,overcast clouds
496,Knysna,ZA,-34.0363,23.0471,63.73,53,49,7.38,scattered clouds
497,Biak,ID,-0.9131,122.8766,77.74,75,100,1.72,overcast clouds
498,Sfantu Gheorghe,RO,45.8667,25.7833,49.93,44,8,9.13,clear sky
499,Alice Springs,AU,-23.7,133.8833,67.55,49,75,6.91,broken clouds
500,Guarapari,BR,-20.6667,-40.4975,89.49,63,2,15.68,clear sky
501,Molina,CL,-35.1167,-71.2833,63.37,81,0,6.91,clear sky
502,Samut Sakhon,TH,13.5833,100.3,84.18,83,14,5.99,few clouds
503,Sorland,NO,67.667,12.6934,39.27,80,100,23.29,overcast clouds
504,Tadine,NC,-21.55,167.8833,70.68,86,21,12.93,few clouds
505,Ulaangom,MN,49.9811,92.0667,35.69,69,90,0.67,overcast clouds
506,Muros,ES,42.7762,-9.0603,65.84,91,75,7.27,broken clouds
507,Amapala,HN,13.2922,-87.6539,83.03,83,27,3.22,scattered clouds
508,Bo Phloi,TH,14.3236,99.5161,74.5,89,22,7.47,light rain
509,Egvekinot,RU,66.3167,-179.1667,6.22,86,81,6.82,broken clouds
510,Shupiyan,IN,33.7167,74.8333,43.02,90,100,2.57,overcast clouds
511,Fenoarivo,MG,-18.933,47.4354,82.47,44,75,12.66,broken clouds
512,Yarovoye,RU,52.9273,78.58,51.39,70,100,9.84,overcast clouds
513,Itoman,JP,26.1247,127.6694,75.22,78,75,6.91,broken clouds
514,Lakes Entrance,AU,-37.8811,147.981,49.15,66,15,13.78,few clouds
515,Pitimbu,BR,-7.4706,-34.8086,86.59,61,98,14.83,overcast clouds
516,Laguna,US,38.421,-121.4238,59.4,93,90,4.0,moderate rain
517,Verkhnevilyuysk,RU,63.4453,120.3167,30.99,95,100,8.1,light snow
518,Kyren,RU,51.6828,102.1408,35.6,66,10,2.55,clear sky
519,Portland,US,45.5234,-122.6762,54.54,92,90,1.99,overcast clouds
520,Semporna,MY,4.4818,118.6112,80.33,82,55,4.09,broken clouds
521,Riberalta,BO,-10.9833,-66.1,94.82,43,51,4.85,broken clouds
522,Atasu,KZ,48.6814,71.6433,47.41,42,2,6.67,clear sky
523,Gushikawa,JP,26.3544,127.8686,74.43,83,75,8.05,broken clouds
524,Yamada,JP,39.4667,141.95,49.53,78,3,5.44,clear sky
525,Prestea,GH,5.4327,-2.1428,83.97,75,94,5.37,moderate rain
526,Upata,VE,8.0086,-62.3989,79.59,75,83,7.0,broken clouds
527,Grand-Santi,GF,4.25,-54.3833,90.07,49,21,5.73,few clouds
528,Atbasar,KZ,51.8,68.3333,49.26,40,89,15.08,overcast clouds
529,Qaqortoq,GL,60.7167,-46.0333,34.3,49,100,1.32,overcast clouds
530,Kasongo-Lunda,CD,-6.4667,16.8167,90.43,45,81,4.68,broken clouds
531,Stromness,GB,58.965,-3.296,57.45,83,1,14.0,clear sky
532,Cayenne,GF,4.9333,-52.3333,86.09,80,75,8.99,mist
533,Riverton,US,40.5219,-111.9391,47.37,90,90,4.0,overcast clouds
534,Shihezi,CN,44.3,86.0333,45.86,38,0,6.4,clear sky
535,Palmer,US,42.1584,-72.3287,50.32,64,20,1.01,few clouds
536,Plymouth,US,41.8334,-70.8328,52.05,57,1,1.01,clear sky
537,Kilindoni,TZ,-7.9139,39.6668,80.91,68,9,10.42,clear sky
538,Statesboro,US,32.4488,-81.7832,67.32,88,1,0.0,clear sky
539,Giddalur,IN,15.35,78.9167,76.5,68,100,4.0,light rain
540,Salinas,US,36.6777,-121.6555,62.82,69,90,18.41,overcast clouds
541,Timbiqui,CO,2.7717,-77.6654,78.85,82,95,2.15,overcast clouds
542,Quilali,NI,13.567,-86.026,76.55,86,15,2.59,few clouds
543,Ahuimanu,US,21.4447,-157.8378,76.75,76,75,9.22,light rain
544,Neder Vindinge,DK,55.0321,11.8836,53.08,66,100,14.45,overcast clouds
545,Antofagasta,CL,-23.65,-70.4,68.22,61,0,8.43,clear sky
546,Alexandria,EG,31.2156,29.9553,73.83,59,0,11.63,clear sky
547,Singaraja,ID,-8.112,115.0882,79.97,82,100,4.85,overcast clouds
548,Luwingu,ZM,-10.2621,29.9271,91.6,18,74,4.25,broken clouds
549,Moose Factory,CA,51.2585,-80.6094,33.78,100,90,3.44,mist
550,Texarkana,US,33.4251,-94.0477,71.82,87,75,3.0,broken clouds
551,Tromso,NO,69.6496,18.957,31.37,86,0,3.44,clear sky
552,Asau,RO,46.4333,26.4,53.4,47,73,3.78,broken clouds
553,Jumla,NP,29.2747,82.1838,46.49,93,2,4.85,clear sky
554,Mayumba,GA,-3.432,10.6554,79.2,81,95,8.01,light rain
555,Kisangani,CD,0.5167,25.2,79.39,80,54,5.26,heavy intensity rain
556,Miramar,US,25.9873,-80.2323,83.01,90,1,0.0,clear sky
557,Dawlatabad,AF,36.4141,64.9053,61.25,26,0,6.67,clear sky
558,Trincomalee,LK,8.5711,81.2335,82.13,76,100,8.81,overcast clouds
559,Atar,MR,20.5169,-13.0499,99.3,12,4,7.76,clear sky
560,Acaponeta,MX,22.4964,-105.3594,74.84,81,99,3.42,overcast clouds
561,Maniitsoq,GL,65.4167,-52.9,25.59,60,13,5.26,few clouds
562,Fukue,JP,32.6881,128.8419,67.05,47,87,6.64,overcast clouds
563,Ladnun,IN,27.65,74.3833,75.27,60,51,7.45,broken clouds
564,Musiri,IN,10.9333,78.45,82.44,77,88,2.3,moderate rain
565,Quatre Cocos,MU,-20.2078,57.7625,76.08,75,36,13.38,scattered clouds
566,Trairi,BR,-3.2778,-39.2689,87.13,55,86,15.43,overcast clouds
567,Mae Sai,TH,20.4335,99.8762,73.44,98,99,1.72,overcast clouds
568,Uglovskoye,RU,51.3557,80.1942,47.41,65,82,9.37,broken clouds
569,Port Hawkesbury,CA,45.6169,-61.3485,56.08,93,90,11.01,mist
570,Pine Bluff,US,34.2284,-92.0032,71.67,83,90,11.01,overcast clouds
571,Cachoeira Do Sul,BR,-30.0392,-52.8939,68.2,49,0,5.95,clear sky
572,Kourou,GF,5.1552,-52.6478,86.11,87,56,8.77,broken clouds
573,Saint-Louis,SN,16.3333,-15.0,99.54,24,18,8.37,few clouds
574,Ulagan,RU,50.6321,87.9563,32.7,76,79,3.22,broken clouds
575,Santa Ana,US,33.7456,-117.8678,62.78,85,75,3.44,broken clouds
576,Nsanje,MW,-16.92,35.262,109.9,11,51,10.54,broken clouds
577,Cururupu,BR,-1.8283,-44.8683,91.8,45,30,8.34,scattered clouds
578,Nadezhda,RU,44.1,44.6,59.2,63,91,4.54,overcast clouds
579,Majitha,IN,31.7583,74.9544,69.57,82,40,0.0,mist
580,Karakol,KG,42.4907,78.3936,33.8,52,0,3.89,clear sky
581,Vega De Alatorre,MX,20.0333,-96.6333,78.42,77,53,1.61,broken clouds
582,Manta,EC,-0.95,-80.7333,74.98,88,90,9.22,overcast clouds
583,Ciudad Guayana,VE,8.3533,-62.6528,77.29,88,97,5.93,heavy intensity rain
584,Blagoyevo,RU,63.3667,47.9167,28.72,88,100,4.72,overcast clouds
585,Aras,ES,42.5617,-2.356,66.76,30,0,1.14,clear sky
586,Riyadh,SA,24.6877,46.7219,95.14,11,0,6.89,clear sky
587,Inuvik,CA,68.3499,-133.7218,25.56,100,90,4.61,fog
588,Constitucion,CL,-35.3333,-72.4167,60.75,56,0,11.12,clear sky
589,Pakxan,LA,18.3778,103.6601,70.88,81,92,2.84,overcast clouds
590,Quesnel,CA,52.9999,-122.5029,43.12,76,100,2.08,overcast clouds
591,Mayo,US,38.8876,-76.5119,58.37,78,90,1.99,overcast clouds
592,Golkoy,TR,40.6875,37.6178,53.01,77,27,4.54,scattered clouds
593,Svecha,RU,58.2785,47.5164,37.9,95,100,6.64,overcast clouds
594,Sapa,PH,5.1544,120.3241,80.44,78,96,1.25,overcast clouds
595,Lima,PE,-12.0432,-77.0282,62.91,83,90,5.75,overcast clouds
596,Tahoua,NE,14.8888,5.2692,101.3,9,98,13.29,overcast clouds
597,Ibaiti,BR,-23.8486,-50.1878,65.71,87,100,8.7,light rain
598,Kalabo,ZM,-14.97,22.6814,88.63,35,70,9.48,light rain
599,Gerash,IR,27.6652,54.1371,82.54,17,0,11.36,clear sky
600,Manggar,ID,-2.8833,108.2667,81.48,73,41,0.96,scattered clouds
601,Itaiba,BR,-8.9475,-37.4228,85.84,47,95,7.29,overcast clouds
602,Bari Sadri,IN,24.4167,74.4667,75.54,69,51,4.9,broken clouds
603,Qasigiannguit,GL,68.8193,-51.1922,21.45,78,94,5.59,overcast clouds
604,Katobu,ID,-4.9408,122.5276,76.39,89,99,4.09,overcast clouds
605,Ratnagiri,IN,16.9833,73.3,78.96,78,43,10.18,scattered clouds
606,Maragogi,BR,-9.0122,-35.2225,82.71,67,89,15.79,overcast clouds
607,Saint-Georges,GD,12.0564,-61.7485,83.3,69,48,16.78,scattered clouds
608,Derzhavinsk,KZ,51.1,66.3167,50.07,37,18,16.51,few clouds
609,Ierapetra,GR,35.01,25.7353,76.14,55,7,8.01,clear sky
610,Erzin,TR,36.9559,36.2,79.32,57,0,6.98,clear sky
611,Kualakapuas,ID,-3.0091,114.3876,80.76,88,86,3.22,overcast clouds
612,Baykit,RU,61.67,96.37,38.64,97,100,7.7,light rain
613,San Cristobal,VE,7.7669,-72.225,73.58,57,88,5.1,overcast clouds
614,Hami,CN,42.8,93.45,50.7,40,100,3.69,overcast clouds
615,Mitha Tiwana,PK,32.2486,72.1108,70.14,53,13,10.56,few clouds
616,Sao Joao De Pirabas,BR,-0.7747,-47.1772,87.55,60,69,9.44,broken clouds
617,Sao Felix Do Xingu,BR,-6.6447,-51.995,90.72,48,14,4.38,few clouds
618,Skovorodino,RU,53.9833,123.9167,32.07,88,8,1.7,clear sky
619,Tres Arroyos,AR,-38.3739,-60.2798,65.19,26,0,10.29,clear sky
620,Santa Vitoria Do Palmar,BR,-33.5189,-53.3681,63.95,42,0,7.65,clear sky
621,Karkal,IN,13.2,74.9833,80.42,94,93,2.26,moderate rain
622,North Bend,US,43.4065,-124.2243,58.91,97,90,21.85,overcast clouds
623,Cotonou,BJ,6.3654,2.4183,84.04,67,90,6.55,overcast clouds
624,Seydi,TM,39.4816,62.9137,56.93,23,7,3.18,clear sky
625,Apac,UG,1.9756,32.5386,86.36,47,48,4.21,scattered clouds
626,Reconquista,AR,-29.15,-59.65,73.69,38,0,3.83,clear sky
627,Nanakuli,US,21.3906,-158.1547,76.98,73,1,8.05,clear sky
628,Paraiso,CR,9.8383,-83.8656,74.88,65,39,2.13,scattered clouds
629,San Luis,AR,-33.295,-66.3356,72.03,18,0,9.71,clear sky
630,Khuzhir,RU,53.1939,107.3397,41.43,73,77,6.11,broken clouds
631,Presidencia Roque Saenz Pena,AR,-26.7852,-60.4388,77.29,34,0,3.91,clear sky
632,Premia De Mar,ES,41.4921,2.3652,75.38,61,0,1.01,clear sky
633,Bjornevatn,NO,69.6672,29.9847,29.82,80,40,8.05,light snow
634,Muravlenko,RU,63.7898,74.523,26.26,82,12,20.24,few clouds
635,Mpika,ZM,-11.8343,31.4529,91.81,16,19,12.46,few clouds
636,Weyburn,CA,49.6668,-103.8511,32.18,98,100,11.65,light snow
637,Port Talbot,GB,51.5924,-3.7802,61.48,84,41,1.01,scattered clouds
638,Oskemen,KZ,49.9565,82.6119,44.56,61,90,8.95,overcast clouds
639,Vedasandur,IN,10.5333,77.95,79.48,77,99,2.04,moderate rain
640,El Burrion,MX,25.5333,-108.4,72.05,93,0,1.99,clear sky
641,Road Town,VG,18.4167,-64.6167,84.29,79,40,11.5,scattered clouds
642,Masvingo,ZW,-20.0637,30.8277,80.01,46,97,11.43,overcast clouds
643,Mount Barker,AU,-35.0667,138.8667,51.21,88,0,4.59,clear sky
644,Tahe,CN,52.3333,124.7333,35.2,81,64,2.93,broken clouds
645,Tupelo,US,34.2576,-88.7034,64.69,79,1,4.0,clear sky
646,Dosso,NE,13.049,3.1937,96.37,28,92,8.25,overcast clouds
647,Mezen,RU,65.8522,44.24,27.55,86,11,8.63,few clouds
648,Forbes,AU,-33.3833,148.0167,52.92,63,0,4.59,clear sky
649,Yar-Sale,RU,66.8333,70.8333,26.76,75,82,23.29,broken clouds
650,Bud,US,39.447,-86.1758,55.81,98,100,8.03,heavy intensity rain
651,Tsiroanomandidy,MG,-18.7667,46.0333,92.53,18,23,9.53,few clouds
652,Sayyan,YE,15.1718,44.3244,67.86,16,1,11.23,clear sky
653,Pacific Grove,US,36.6177,-121.9166,62.42,88,100,7.0,overcast clouds
654,Pasni,PK,25.2631,63.471,79.61,70,0,17.38,clear sky
655,Houlton,US,46.1262,-67.8403,43.21,68,40,13.8,scattered clouds
656,Listvyanka,RU,51.8535,104.8693,33.3,75,13,0.69,few clouds
657,Archidona,ES,37.0965,-4.3887,72.39,42,6,6.89,clear sky
658,Iquitos,PE,-3.7481,-73.2472,86.04,74,40,4.61,scattered clouds
659,Saint-Denis,FR,48.9167,2.3333,60.28,61,0,8.05,clear sky
660,Benalla,AU,-36.55,145.9833,45.99,83,0,8.1,clear sky
661,Anadyr,RU,64.75,177.4833,-10.82,98,63,8.5,broken clouds
662,Avera,US,33.194,-82.5271,66.9,59,100,6.24,overcast clouds
663,Dali,CN,25.7,100.1833,56.55,93,14,5.12,few clouds
664,Traverse City,US,44.7631,-85.6206,48.34,90,20,5.75,few clouds
665,Pontianak,ID,-0.0333,109.3333,80.58,88,20,0.0,few clouds
666,Sagua De Tanamo,CU,20.5819,-75.2414,83.75,65,78,2.46,broken clouds
667,Kushima,JP,31.4583,131.2333,63.07,79,92,7.34,overcast clouds
668,Trzcianka,PL,53.0406,16.4563,50.13,62,61,8.14,broken clouds
669,Hualmay,PE,-11.0964,-77.6139,64.9,76,57,7.09,broken clouds
670,Yumen,CN,40.2833,97.2,46.83,35,100,14.34,overcast clouds
671,Lagos,NG,6.5833,3.75,87.33,60,73,6.8,broken clouds
672,Havre-Saint-Pierre,CA,50.2334,-63.5986,46.94,90,100,8.37,overcast clouds
673,Governador Valadares,BR,-18.8511,-41.9494,83.03,61,95,3.94,overcast clouds
674,Thames,NZ,-37.1333,175.5333,61.38,98,100,3.58,overcast clouds
675,Hobyo,SO,5.3505,48.5268,80.94,72,28,13.29,scattered clouds
676,Hokitika,NZ,-42.7167,170.9667,56.1,94,100,4.76,overcast clouds
677,Chistogorskiy,RU,53.9835,87.3843,43.95,70,100,13.56,overcast clouds
678,Atmakur,IN,15.8833,78.5833,75.42,78,92,3.76,overcast clouds
679,Havoysund,NO,70.9963,24.6622,27.48,73,100,6.4,snow
680,Virginia Beach,US,36.8529,-75.978,68.02,84,28,3.0,scattered clouds
681,Raton,US,36.9034,-104.4391,52.41,41,1,6.91,clear sky
682,Orcopampa,PE,-15.2661,-72.3417,55.62,20,0,1.81,clear sky
683,Burns Lake,CA,54.2331,-125.7533,31.12,95,76,3.09,broken clouds
